{"type":"FeatureCollection","features":[{"type":"Feature","id":1,"geometry":{"type":"Point","coordinates":[-102.2739494156106,22.141630321960101]},"properties":{"OBJECTID":1,"CVEGEO":"010060001","CVESERV":19,"CONDICION":"En Operación","GEOGRAFICO":"Centro de Asistencia Médica","NOMGEO":"Centro de Salud Rural Pabellon de Arteaga","TIPO":"Centro de Salud","OID_1":8}},{"type":"Feature","id":2,"geometry":{"type":"Point","coordinates":[-102.27212611511902,22.141238187002394]},"properties":{"OBJECTID":2,"CVEGEO":"010060001","CVESERV":31,"CONDICION":"En Operación","GEOGRAFICO":"Escuela","NOMGEO":"Primaria Colegio Guadalupe Victoria","TIPO":"Primaria","OID_1":9}},{"type":"Feature","id":3,"geometry":{"type":"Point","coordinates":[-102.27141666363508,22.145730661175708]},"properties":{"OBJECTID":3,"CVEGEO":"010060001","CVESERV":48,"CONDICION":"En Operación","GEOGRAFICO":"Escuela","NOMGEO":"Centro de Capacitación Para el Trabajo Industrial 154","TIPO":"Medio Superior","OID_1":10}},{"type":"Feature","id":4,"geometry":{"type":"Point","coordinates":[-102.27136195945093,22.14475247890849]},"properties":{"OBJECTID":4,"CVEGEO":"010060001","CVESERV":28,"CONDICION":"En Operación","GEOGRAFICO":"Escuela","NOMGEO":"Jardin de Niños Antonio Leal y Romero","TIPO":"Preescolar","OID_1":11}},{"type":"Feature","id":5,"geometry":{"type":"Point","coordinates":[-102.27088216413334,22.145721422043078]},"properties":{"OBJECTID":5,"CVEGEO":"010060001","CVESERV":36,"CONDICION":"En Operación","GEOGRAFICO":"Escuela","NOMGEO":"Escuelas Primarias Justo Sierra Méndez y Lic. Benito Júarez","TIPO":"Primaria","OID_1":12}},{"type":"Feature","id":6,"geometry":{"type":"Point","coordinates":[-102.27156119330466,22.147039362238182]},"properties":{"OBJECTID":6,"CVEGEO":"010060001","CVESERV":27,"CONDICION":"En Operación","GEOGRAFICO":"Templo","NOMGEO":"Capilla de Nuestra Señora del Refugio","TIPO":"No Aplica","OID_1":13}},{"type":"Feature","id":7,"geometry":{"type":"Point","coordinates":[-102.27446661495502,22.148969440272062]},"properties":{"OBJECTID":7,"CVEGEO":"010060001","CVESERV":23,"CONDICION":"En Operación","GEOGRAFICO":"Templo","NOMGEO":"Parroquia de Pabellón de Guadalupe","TIPO":"No Aplica","OID_1":14}},{"type":"Feature","id":8,"geometry":{"type":"Point","coordinates":[-102.27001775322874,22.156498517348865]},"properties":{"OBJECTID":8,"CVEGEO":"010060001","CVESERV":49,"CONDICION":"No Aplica","GEOGRAFICO":"Cementerio","NOMGEO":"Panteón Jardines de Pabellón","TIPO":"No Aplica","OID_1":15}},{"type":"Feature","id":9,"geometry":{"type":"Point","coordinates":[-102.27036109511508,22.153828050365998]},"properties":{"OBJECTID":9,"CVEGEO":"010060001","CVESERV":34,"CONDICION":"En Operación","GEOGRAFICO":"Escuela","NOMGEO":"Jardin de Niños Antonio Villareal","TIPO":"Preescolar","OID_1":16}},{"type":"Feature","id":10,"geometry":{"type":"Point","coordinates":[-102.27233542528516,22.152448324305158]},"properties":{"OBJECTID":10,"CVEGEO":"010060001","CVESERV":45,"CONDICION":"En Operación","GEOGRAFICO":"Escuela","NOMGEO":"Escuela  Primaria José Ma. Morelos y Pavón","TIPO":"Primaria","OID_1":17}},{"type":"Feature","id":11,"geometry":{"type":"Point","coordinates":[-102.28880423058364,22.152038317807584]},"properties":{"OBJECTID":11,"CVEGEO":"010060001","CVESERV":43,"CONDICION":"En Operación","GEOGRAFICO":"Escuela","NOMGEO":"Jardin de Niños Enrique Olivares Santana","TIPO":"Preescolar","OID_1":18}},{"type":"Feature","id":12,"geometry":{"type":"Point","coordinates":[-102.28688194187264,22.145382797331298]},"properties":{"OBJECTID":12,"CVEGEO":"010060001","CVESERV":38,"CONDICION":"En Operación","GEOGRAFICO":"Escuela","NOMGEO":"Escuela Ramon Lopez Velarde","TIPO":"Primaria","OID_1":19}},{"type":"Feature","id":13,"geometry":{"type":"Point","coordinates":[-102.28716515670442,22.144510699437355]},"properties":{"OBJECTID":13,"CVEGEO":"010060001","CVESERV":17,"CONDICION":"En Operación","GEOGRAFICO":"Centro de Asistencia Médica","NOMGEO":"Centro de Salud Consultorio Periferico de Pabellon de Arteaga","TIPO":"Centro de Salud","OID_1":20}},{"type":"Feature","id":14,"geometry":{"type":"Point","coordinates":[-102.287979652296,22.14460434477656]},"properties":{"OBJECTID":14,"CVEGEO":"010060001","CVESERV":29,"CONDICION":"En Operación","GEOGRAFICO":"Escuela","NOMGEO":"Jardin de Niños Ladislao Juarez Ponce","TIPO":"Preescolar","OID_1":21}},{"type":"Feature","id":15,"geometry":{"type":"Point","coordinates":[-102.27330822014747,22.144513879177147]},"properties":{"OBJECTID":15,"CVEGEO":"010060001","CVESERV":22,"CONDICION":"En Operación","GEOGRAFICO":"Templo","NOMGEO":"Tabernaculo de Alabanzas","TIPO":"No Aplica","OID_1":22}},{"type":"Feature","id":16,"geometry":{"type":"Point","coordinates":[-102.28259613533147,22.146897820467327]},"properties":{"OBJECTID":16,"CVEGEO":"010060001","CVESERV":32,"CONDICION":"En Operación","GEOGRAFICO":"Escuela","NOMGEO":"Escuela Primaria José María  Arteaga","TIPO":"Primaria","OID_1":23}},{"type":"Feature","id":17,"geometry":{"type":"Point","coordinates":[-102.28160781053707,22.14695886098168]},"properties":{"OBJECTID":17,"CVEGEO":"010060001","CVESERV":41,"CONDICION":"En Operación","GEOGRAFICO":"Escuela","NOMGEO":"Escuela Secundaria Tecnica  Numero 3","TIPO":"Secundaria","OID_1":24}},{"type":"Feature","id":18,"geometry":{"type":"Point","coordinates":[-102.28259720882284,22.145821023774943]},"properties":{"OBJECTID":18,"CVEGEO":"010060001","CVESERV":44,"CONDICION":"En Operación","GEOGRAFICO":"Escuela","NOMGEO":"Jardín de Niños Julia de Alba Medrano","TIPO":"Preescolar","OID_1":25}},{"type":"Feature","id":19,"geometry":{"type":"Point","coordinates":[-102.27815422122414,22.146828104924065]},"properties":{"OBJECTID":19,"CVEGEO":"010060001","CVESERV":24,"CONDICION":"En Operación","GEOGRAFICO":"Templo","NOMGEO":"Templo del Sagrado Corazon de Jesus","TIPO":"No Aplica","OID_1":26}},{"type":"Feature","id":20,"geometry":{"type":"Point","coordinates":[-102.2780553712665,22.145749617055557]},"properties":{"OBJECTID":20,"CVEGEO":"010060001","CVESERV":18,"CONDICION":"En Operación","GEOGRAFICO":"Centro de Asistencia Médica","NOMGEO":"Instituto Mexicano del Seguro Social Unidad de Medicina 3","TIPO":"Centro de Salud","OID_1":27}},{"type":"Feature","id":21,"geometry":{"type":"Point","coordinates":[-102.27859033847803,22.146095936075252]},"properties":{"OBJECTID":21,"CVEGEO":"010060001","CVESERV":37,"CONDICION":"En Operación","GEOGRAFICO":"Escuela","NOMGEO":"Bachillerato Nuevo Milenio","TIPO":"Medio Superior","OID_1":28}},{"type":"Feature","id":22,"geometry":{"type":"Point","coordinates":[-102.27569763130792,22.14986533278028]},"properties":{"OBJECTID":22,"CVEGEO":"010060001","CVESERV":33,"CONDICION":"En Operación","GEOGRAFICO":"Escuela","NOMGEO":"Jardín de Niños Justo Sierra","TIPO":"Preescolar","OID_1":29}},{"type":"Feature","id":23,"geometry":{"type":"Point","coordinates":[-102.27832225909671,22.151923287610344]},"properties":{"OBJECTID":23,"CVEGEO":"010060001","CVESERV":51,"CONDICION":"En Operación","GEOGRAFICO":"Escuela","NOMGEO":"Primaria Federal Teodoro Olivares","TIPO":"Primaria","OID_1":30}},{"type":"Feature","id":24,"geometry":{"type":"Point","coordinates":[-102.27656275403953,22.149147913838085]},"properties":{"OBJECTID":24,"CVEGEO":"010060001","CVESERV":20,"CONDICION":"No Aplica","GEOGRAFICO":"Instalación Gubernamental","NOMGEO":"Presidencia Municipal de Pabellon de Arteaga","TIPO":"Palacio de Gobierno","OID_1":31}},{"type":"Feature","id":25,"geometry":{"type":"Point","coordinates":[-102.27804476398825,22.151390609092807]},"properties":{"OBJECTID":25,"CVEGEO":"010060001","CVESERV":46,"CONDICION":"En Operación","GEOGRAFICO":"Escuela","NOMGEO":"Jardin de Niños Otto Granados Roldan","TIPO":"Preescolar","OID_1":32}},{"type":"Feature","id":26,"geometry":{"type":"Point","coordinates":[-102.28277657312043,22.152313814236066]},"properties":{"OBJECTID":26,"CVEGEO":"010060001","CVESERV":42,"CONDICION":"En Operación","GEOGRAFICO":"Escuela","NOMGEO":"Escuela Primaria Federal Dolores Jimenez y Muro","TIPO":"Primaria","OID_1":33}},{"type":"Feature","id":27,"geometry":{"type":"Point","coordinates":[-102.28182121967519,22.151717490104641]},"properties":{"OBJECTID":27,"CVEGEO":"010060001","CVESERV":47,"CONDICION":"En Operación","GEOGRAFICO":"Escuela","NOMGEO":"CECYTA Pabellon de Arteaga","TIPO":"Medio Superior","OID_1":34}},{"type":"Feature","id":28,"geometry":{"type":"Point","coordinates":[-102.27959985870565,22.1496951399584]},"properties":{"OBJECTID":28,"CVEGEO":"010060001","CVESERV":1,"CONDICION":"En Operación","GEOGRAFICO":"Centro de Asistencia Médica","NOMGEO":"Hospital General de Pabellon de Arteaga","TIPO":"Centro de Salud","OID_1":35}},{"type":"Feature","id":29,"geometry":{"type":"Point","coordinates":[-102.27445718645482,22.137782382074267]},"properties":{"OBJECTID":29,"CVEGEO":"010060001","CVESERV":25,"CONDICION":"En Operación","GEOGRAFICO":"Templo","NOMGEO":"Capilla de la Inmaculada Concepción","TIPO":"No Aplica","OID_1":36}},{"type":"Feature","id":30,"geometry":{"type":"Point","coordinates":[-102.27562428659228,22.141606683640607]},"properties":{"OBJECTID":30,"CVEGEO":"010060001","CVESERV":39,"CONDICION":"En Operación","GEOGRAFICO":"Escuela","NOMGEO":"Escuela Primaria Ford 84","TIPO":"Primaria","OID_1":37}},{"type":"Feature","id":31,"geometry":{"type":"Point","coordinates":[-102.2762947169004,22.141000094152957]},"properties":{"OBJECTID":31,"CVEGEO":"010060001","CVESERV":40,"CONDICION":"En Operación","GEOGRAFICO":"Escuela","NOMGEO":"Escuela Secundaria Técnica 23","TIPO":"Secundaria","OID_1":38}},{"type":"Feature","id":32,"geometry":{"type":"Point","coordinates":[-102.27774016818719,22.140896019396113]},"properties":{"OBJECTID":32,"CVEGEO":"010060001","CVESERV":16,"CONDICION":"En Operación","GEOGRAFICO":"Centro de Asistencia Médica","NOMGEO":"Unidad de Medicina Familiar ISSSTE","TIPO":"Centro de Salud","OID_1":39}},{"type":"Feature","id":33,"geometry":{"type":"Point","coordinates":[-102.27701495743722,22.138076414804594]},"properties":{"OBJECTID":33,"CVEGEO":"010060001","CVESERV":30,"CONDICION":"En Operación","GEOGRAFICO":"Escuela","NOMGEO":"Jardin de Niños Justino Fernández","TIPO":"Preescolar","OID_1":40}},{"type":"Feature","id":34,"geometry":{"type":"Point","coordinates":[-102.28655599124654,22.146223363554469]},"properties":{"OBJECTID":34,"CVEGEO":"010060001","CVESERV":26,"CONDICION":"En Operación","GEOGRAFICO":"Templo","NOMGEO":"Templo de la Santisima Trinidad","TIPO":"No Aplica","OID_1":41}},{"type":"Feature","id":35,"geometry":{"type":"Point","coordinates":[-102.28092804485027,22.143995066858157]},"properties":{"OBJECTID":35,"CVEGEO":"010060001","CVESERV":6,"CONDICION":"En Operación","GEOGRAFICO":"Tanque de Agua","NOMGEO":"Tanque Elevado","TIPO":"Tanque Elevado","OID_1":42}},{"type":"Feature","id":36,"geometry":{"type":"Point","coordinates":[-102.28770232820997,22.150641980988695]},"properties":{"OBJECTID":36,"CVEGEO":"010060001","CVESERV":5,"CONDICION":"En Operación","GEOGRAFICO":"Instalación Deportiva o Recreativa","NOMGEO":"Cancha de Futbol","TIPO":"Parque","OID_1":43}},{"type":"Feature","id":37,"geometry":{"type":"Point","coordinates":[-102.2811247498631,22.146409720287643]},"properties":{"OBJECTID":37,"CVEGEO":"010060001","CVESERV":4,"CONDICION":"En Operación","GEOGRAFICO":"Tanque de Agua","NOMGEO":"Tanque Elevado","TIPO":"Tanque Elevado","OID_1":44}},{"type":"Feature","id":38,"geometry":{"type":"Point","coordinates":[-102.28720917187638,22.144627982452981]},"properties":{"OBJECTID":38,"CVEGEO":"010060001","CVESERV":3,"CONDICION":"En Operación","GEOGRAFICO":"Tanque de Agua","NOMGEO":"Tanque Elevado","TIPO":"Tanque Elevado","OID_1":45}},{"type":"Feature","id":39,"geometry":{"type":"Point","coordinates":[-102.27289080626187,22.145597975996591]},"properties":{"OBJECTID":39,"CVEGEO":"010060001","CVESERV":2,"CONDICION":"En Operación","GEOGRAFICO":"Pozo","NOMGEO":"Pozo","TIPO":"Agua","OID_1":46}},{"type":"Feature","id":40,"geometry":{"type":"Point","coordinates":[-102.27700938625759,22.149139990397789]},"properties":{"OBJECTID":40,"CVEGEO":"010060001","CVESERV":21,"CONDICION":"En Operación","GEOGRAFICO":"Pozo","NOMGEO":"Pozo","TIPO":"Agua","OID_1":48}},{"type":"Feature","id":41,"geometry":{"type":"Point","coordinates":[-102.27881318281405,22.149028885088363]},"properties":{"OBJECTID":41,"CVEGEO":"010060001","CVESERV":7,"CONDICION":"En Operación","GEOGRAFICO":"Templo","NOMGEO":"Iglesia Cristiana","TIPO":"No Aplica","OID_1":51}},{"type":"Feature","id":42,"geometry":{"type":"Point","coordinates":[-102.27599479093847,22.146632685370811]},"properties":{"OBJECTID":42,"CVEGEO":"010060001","CVESERV":8,"CONDICION":"No Aplica","GEOGRAFICO":"Mercado","NOMGEO":"Mercado","TIPO":"No Aplica","OID_1":52}},{"type":"Feature","id":43,"geometry":{"type":"Point","coordinates":[-102.27928770915395,22.152487274331015]},"properties":{"OBJECTID":43,"CVEGEO":"010060001","CVESERV":9,"CONDICION":"En Operación","GEOGRAFICO":"Centro de Asistencia Médica","NOMGEO":"ISSSTE","TIPO":"Centro de Salud","OID_1":53}},{"type":"Feature","id":44,"geometry":{"type":"Point","coordinates":[-102.27520271597358,22.155956867880167]},"properties":{"OBJECTID":44,"CVEGEO":"010060001","CVESERV":10,"CONDICION":"En Operación","GEOGRAFICO":"Tanque de Agua","NOMGEO":"Tanque Elevado","TIPO":"Tanque Elevado","OID_1":54}},{"type":"Feature","id":45,"geometry":{"type":"Point","coordinates":[-102.27167071461383,22.154382260242208]},"properties":{"OBJECTID":45,"CVEGEO":"010060001","CVESERV":11,"CONDICION":"En Operación","GEOGRAFICO":"Pozo","NOMGEO":"Pozo","TIPO":"Agua","OID_1":55}},{"type":"Feature","id":46,"geometry":{"type":"Point","coordinates":[-102.28821229460397,22.152572123306758]},"properties":{"OBJECTID":46,"CVEGEO":"010060001","CVESERV":12,"CONDICION":"En Operación","GEOGRAFICO":"Pozo","NOMGEO":"Pozo","TIPO":"Agua","OID_1":56}},{"type":"Feature","id":47,"geometry":{"type":"Point","coordinates":[-102.28822810106978,22.151881243632086]},"properties":{"OBJECTID":47,"CVEGEO":"010060001","CVESERV":13,"CONDICION":"En Operación","GEOGRAFICO":"Escuela","NOMGEO":"Primaria","TIPO":"Primaria","OID_1":57}},{"type":"Feature","id":48,"geometry":{"type":"Point","coordinates":[-102.27338905702085,22.145258744628723]},"properties":{"OBJECTID":48,"CVEGEO":"010060001","CVESERV":14,"CONDICION":"En Operación","GEOGRAFICO":"Tanque de Agua","NOMGEO":"Tanque Elevado","TIPO":"Tanque Elevado","OID_1":58}},{"type":"Feature","id":49,"geometry":{"type":"Point","coordinates":[-102.27970078163391,22.151725270315982]},"properties":{"OBJECTID":49,"CVEGEO":"010060001","CVESERV":15,"CONDICION":"En Operación","GEOGRAFICO":"Tanque de Agua","NOMGEO":"Tanque Elevado","TIPO":"Tanque Elevado","OID_1":59}},{"type":"Feature","id":50,"geometry":{"type":"Point","coordinates":[-102.27734064445067,22.140988084665736]},"properties":{"OBJECTID":50,"CVEGEO":"010060001","CVESERV":4,"CONDICION":"En Operación","GEOGRAFICO":"Instalación Deportiva o Recreativa","NOMGEO":"Jardín","TIPO":"Jardín","OID_1":62}},{"type":"Feature","id":51,"geometry":{"type":"Point","coordinates":[-102.28161251753272,22.145243015748441]},"properties":{"OBJECTID":51,"CVEGEO":"010060001","CVESERV":75,"CONDICION":"En Operación","GEOGRAFICO":"Instalación Deportiva o Recreativa","NOMGEO":"Campo de Beisbol","TIPO":"Parque","OID_1":63}},{"type":"Feature","id":52,"geometry":{"type":"Point","coordinates":[-102.28751528093802,22.144567891104689]},"properties":{"OBJECTID":52,"CVEGEO":"010060001","CVESERV":25,"CONDICION":"En Operación","GEOGRAFICO":"Instalación Deportiva o Recreativa","NOMGEO":"Jardín","TIPO":"Jardín","OID_1":64}},{"type":"Feature","id":53,"geometry":{"type":"Point","coordinates":[-102.28295790107028,22.15179142387321]},"properties":{"OBJECTID":53,"CVEGEO":"010060001","CVESERV":73,"CONDICION":"En Operación","GEOGRAFICO":"Instalación Deportiva o Recreativa","NOMGEO":"Lienzo Charro","TIPO":"Lienzo Charro","OID_1":65}},{"type":"Feature","id":54,"geometry":{"type":"Point","coordinates":[-102.27722588796087,22.148684937062516]},"properties":{"OBJECTID":54,"CVEGEO":"010060001","CVESERV":3,"CONDICION":"No Aplica","GEOGRAFICO":"Plaza","NOMGEO":"Plaza de la Concordia","TIPO":"No Aplica","OID_1":66}},{"type":"Feature","id":55,"geometry":{"type":"Point","coordinates":[-102.27452545274615,22.150695429620569]},"properties":{"OBJECTID":55,"CVEGEO":"010060001","CVESERV":24,"CONDICION":"En Operación","GEOGRAFICO":"Instalación Deportiva o Recreativa","NOMGEO":"Parque Infantil José María Morelos y Pavón","TIPO":"Parque","OID_1":67}},{"type":"Feature","id":56,"geometry":{"type":"Point","coordinates":[-102.27145014863154,22.149201025869495]},"properties":{"OBJECTID":56,"CVEGEO":"010060001","CVESERV":20,"CONDICION":"En Operación","GEOGRAFICO":"Instalación Deportiva o Recreativa","NOMGEO":"Jardín José María Morelos y Pavón","TIPO":"Jardín","OID_1":68}},{"type":"Feature","id":57,"geometry":{"type":"Point","coordinates":[-102.28959445702712,22.141686336096388]},"properties":{"OBJECTID":57,"CVEGEO":"010060001","CVESERV":1,"CONDICION":"Fuera de Uso","GEOGRAFICO":"Centro de Asistencia Médica","NOMGEO":"ISEA","TIPO":"Hospital","OID_1":69}},{"type":"Feature","id":58,"geometry":{"type":"Point","coordinates":[-102.27667595729329,22.148812056014307]},"properties":{"OBJECTID":58,"CVEGEO":"010060001","CVESERV":2,"CONDICION":"En Operación","GEOGRAFICO":"Instalación Diversa","NOMGEO":"Busto","TIPO":"Monumento u Obelisco","OID_1":70}},{"type":"Feature","id":59,"geometry":{"type":"Point","coordinates":[-102.27727632754727,22.148639488163791]},"properties":{"OBJECTID":59,"CVEGEO":"010060001","CVESERV":4,"CONDICION":"En Operación","GEOGRAFICO":"Instalación Diversa","NOMGEO":"Busto Historico","TIPO":"Monumento u Obelisco","OID_1":71}},{"type":"Feature","id":60,"geometry":{"type":"Point","coordinates":[-102.27870220310531,22.141081827258652]},"properties":{"OBJECTID":60,"CVEGEO":"010060001","CVESERV":76,"CONDICION":"En Operación","GEOGRAFICO":"Instalación Deportiva o Recreativa","NOMGEO":"Area verde","TIPO":"Áreas Verdes","OID_1":72}},{"type":"Feature","id":61,"geometry":{"type":"Point","coordinates":[-102.27853625006897,22.140284749125023]},"properties":{"OBJECTID":61,"CVEGEO":"010060001","CVESERV":1,"CONDICION":"En Operación","GEOGRAFICO":"Instalación Deportiva o Recreativa","NOMGEO":"Area Verde","TIPO":"Áreas Verdes","OID_1":73}},{"type":"Feature","id":62,"geometry":{"type":"Point","coordinates":[-102.27485694359839,22.14677301821861]},"properties":{"OBJECTID":62,"CVEGEO":"010060001","CVESERV":77,"CONDICION":"En Operación","GEOGRAFICO":"Instalación Deportiva o Recreativa","NOMGEO":"Jardin","TIPO":"Jardín","OID_1":74}},{"type":"Feature","id":63,"geometry":{"type":"Point","coordinates":[-102.28602521895107,22.14489286411581]},"properties":{"OBJECTID":63,"CVEGEO":"010060001","CVESERV":1,"CONDICION":"En Operación","GEOGRAFICO":"Instalación Deportiva o Recreativa","NOMGEO":"Cancha de Futbol Rapido","TIPO":"Cancha","OID_1":75}},{"type":"Feature","id":64,"geometry":{"type":"Point","coordinates":[-102.28554605686136,22.144963310674079]},"properties":{"OBJECTID":64,"CVEGEO":"010060001","CVESERV":2,"CONDICION":"No Aplica","GEOGRAFICO":"Instalación Gubernamental","NOMGEO":"Agencia del Ministerio Público","TIPO":"Palacio Municipal","OID_1":76}},{"type":"Feature","id":65,"geometry":{"type":"Point","coordinates":[-102.28554890821789,22.145448513771552]},"properties":{"OBJECTID":65,"CVEGEO":"010060001","CVESERV":3,"CONDICION":"No Aplica","GEOGRAFICO":"Instalación Gubernamental","NOMGEO":"Ninguno","TIPO":"Palacio Municipal","OID_1":77}},{"type":"Feature","id":66,"geometry":{"type":"Point","coordinates":[-102.28548711191172,22.144035168850259]},"properties":{"OBJECTID":66,"CVEGEO":"010060001","CVESERV":1,"CONDICION":"En Operación","GEOGRAFICO":"Escuela","NOMGEO":"CONALEP","TIPO":"Medio Superior","OID_1":78}},{"type":"Feature","id":67,"geometry":{"type":"Point","coordinates":[-102.286076557429,22.141842474904678]},"properties":{"OBJECTID":67,"CVEGEO":"010060001","CVESERV":1,"CONDICION":"En Operación","GEOGRAFICO":"Instalación Deportiva o Recreativa","NOMGEO":"Cancha de Futbol Americano","TIPO":"Cancha","OID_1":79}},{"type":"Feature","id":68,"geometry":{"type":"Point","coordinates":[-102.28489766582604,22.14190411746403]},"properties":{"OBJECTID":68,"CVEGEO":"010060001","CVESERV":1,"CONDICION":"En Operación","GEOGRAFICO":"Instalación Deportiva o Recreativa","NOMGEO":"Parque","TIPO":"Parque","OID_1":80}},{"type":"Feature","id":69,"geometry":{"type":"Point","coordinates":[-102.28147951505012,22.143601732403134]},"properties":{"OBJECTID":69,"CVEGEO":"010060001","CVESERV":7,"CONDICION":"En Operación","GEOGRAFICO":"Instalación Deportiva o Recreativa","NOMGEO":"Unidad deportiva de Pabellón de Arteaga","TIPO":"Unidad Deportiva","OID_1":81}},{"type":"Feature","id":70,"geometry":{"type":"Point","coordinates":[-102.26771903522712,22.091872410313357]},"properties":{"OBJECTID":70,"CVEGEO":null,"CVESERV":null,"CONDICION":null,"GEOGRAFICO":"Escuela","NOMGEO":null,"TIPO":null,"OID_1":null}},{"type":"Feature","id":71,"geometry":{"type":"Point","coordinates":[-102.26734470018653,22.092647570509413]},"properties":{"OBJECTID":71,"CVEGEO":null,"CVESERV":null,"CONDICION":null,"GEOGRAFICO":"Escuela","NOMGEO":null,"TIPO":null,"OID_1":null}},{"type":"Feature","id":72,"geometry":{"type":"Point","coordinates":[-102.26674977612232,22.09223994350646]},"properties":{"OBJECTID":72,"CVEGEO":null,"CVESERV":null,"CONDICION":null,"GEOGRAFICO":"Instalación Deportiva o Recreativa","NOMGEO":null,"TIPO":null,"OID_1":null}},{"type":"Feature","id":73,"geometry":{"type":"Point","coordinates":[-102.26757865941174,22.091117297695643]},"properties":{"OBJECTID":73,"CVEGEO":null,"CVESERV":null,"CONDICION":null,"GEOGRAFICO":"Instalación Deportiva o Recreativa","NOMGEO":null,"TIPO":null,"OID_1":null}},{"type":"Feature","id":74,"geometry":{"type":"Point","coordinates":[-102.26577416385167,22.089493515990668]},"properties":{"OBJECTID":74,"CVEGEO":null,"CVESERV":null,"CONDICION":null,"GEOGRAFICO":"Escuela","NOMGEO":null,"TIPO":null,"OID_1":null}},{"type":"Feature","id":75,"geometry":{"type":"Point","coordinates":[-102.26846765386601,22.088424342424908]},"properties":{"OBJECTID":75,"CVEGEO":null,"CVESERV":null,"CONDICION":null,"GEOGRAFICO":"Templo","NOMGEO":null,"TIPO":null,"OID_1":null}},{"type":"Feature","id":76,"geometry":{"type":"Point","coordinates":[-102.26563387823191,22.095287048516525]},"properties":{"OBJECTID":76,"CVEGEO":null,"CVESERV":null,"CONDICION":null,"GEOGRAFICO":"Instalación Diversa","NOMGEO":null,"TIPO":null,"OID_1":null}},{"type":"Feature","id":77,"geometry":{"type":"Point","coordinates":[-102.33684417834669,22.122057470829024]},"properties":{"OBJECTID":77,"CVEGEO":null,"CVESERV":null,"CONDICION":null,"GEOGRAFICO":"Escuela","NOMGEO":null,"TIPO":null,"OID_1":null}},{"type":"Feature","id":78,"geometry":{"type":"Point","coordinates":[-102.33731485516179,22.119483768495492]},"properties":{"OBJECTID":78,"CVEGEO":null,"CVESERV":null,"CONDICION":null,"GEOGRAFICO":"Escuela","NOMGEO":null,"TIPO":null,"OID_1":null}},{"type":"Feature","id":79,"geometry":{"type":"Point","coordinates":[-102.33682414934594,22.121096088129889]},"properties":{"OBJECTID":79,"CVEGEO":null,"CVESERV":null,"CONDICION":null,"GEOGRAFICO":"Instalación Deportiva o Recreativa","NOMGEO":null,"TIPO":null,"OID_1":null}},{"type":"Feature","id":80,"geometry":{"type":"Point","coordinates":[-102.33713459581183,22.119834272951117]},"properties":{"OBJECTID":80,"CVEGEO":null,"CVESERV":null,"CONDICION":null,"GEOGRAFICO":"Instalación Deportiva o Recreativa","NOMGEO":null,"TIPO":null,"OID_1":null}},{"type":"Feature","id":81,"geometry":{"type":"Point","coordinates":[-102.3345308502531,22.114556679893631]},"properties":{"OBJECTID":81,"CVEGEO":null,"CVESERV":null,"CONDICION":null,"GEOGRAFICO":"Instalación Deportiva o Recreativa","NOMGEO":null,"TIPO":null,"OID_1":null}},{"type":"Feature","id":82,"geometry":{"type":"Point","coordinates":[-102.33570253582023,22.115608192242043]},"properties":{"OBJECTID":82,"CVEGEO":null,"CVESERV":null,"CONDICION":null,"GEOGRAFICO":"Instalación Deportiva o Recreativa","NOMGEO":null,"TIPO":null,"OID_1":null}},{"type":"Feature","id":83,"geometry":{"type":"Point","coordinates":[-102.3375752298416,22.114837083211167]},"properties":{"OBJECTID":83,"CVEGEO":null,"CVESERV":null,"CONDICION":null,"GEOGRAFICO":"Escuela","NOMGEO":null,"TIPO":null,"OID_1":null}},{"type":"Feature","id":84,"geometry":{"type":"Point","coordinates":[-102.33832631031444,22.122027427910893]},"properties":{"OBJECTID":84,"CVEGEO":null,"CVESERV":null,"CONDICION":null,"GEOGRAFICO":"Templo","NOMGEO":null,"TIPO":null,"OID_1":null}},{"type":"Feature","id":85,"geometry":{"type":"Point","coordinates":[-102.33836636855652,22.121596808542343]},"properties":{"OBJECTID":85,"CVEGEO":null,"CVESERV":null,"CONDICION":null,"GEOGRAFICO":"Instalación Deportiva o Recreativa","NOMGEO":null,"TIPO":null,"OID_1":null}},{"type":"Feature","id":86,"geometry":{"type":"Point","coordinates":[-102.3000897650643,22.105872232026016]},"properties":{"OBJECTID":86,"CVEGEO":null,"CVESERV":null,"CONDICION":null,"GEOGRAFICO":"Centro de Asistencia Médica","NOMGEO":null,"TIPO":null,"OID_1":null}},{"type":"Feature","id":87,"geometry":{"type":"Point","coordinates":[-102.29818232253602,22.105881925935631]},"properties":{"OBJECTID":87,"CVEGEO":null,"CVESERV":null,"CONDICION":null,"GEOGRAFICO":"Escuela","NOMGEO":null,"TIPO":null,"OID_1":null}},{"type":"Feature","id":88,"geometry":{"type":"Point","coordinates":[-102.29982686619368,22.10632167525241]},"properties":{"OBJECTID":88,"CVEGEO":null,"CVESERV":null,"CONDICION":null,"GEOGRAFICO":"Escuela","NOMGEO":null,"TIPO":null,"OID_1":null}},{"type":"Feature","id":89,"geometry":{"type":"Point","coordinates":[-102.30062402632271,22.105083658362695]},"properties":{"OBJECTID":89,"CVEGEO":null,"CVESERV":null,"CONDICION":null,"GEOGRAFICO":"Escuela","NOMGEO":null,"TIPO":null,"OID_1":null}},{"type":"Feature","id":90,"geometry":{"type":"Point","coordinates":[-102.30031480755915,22.10633974762413]},"properties":{"OBJECTID":90,"CVEGEO":null,"CVESERV":null,"CONDICION":null,"GEOGRAFICO":"Instalación Deportiva o Recreativa","NOMGEO":null,"TIPO":null,"OID_1":null}},{"type":"Feature","id":91,"geometry":{"type":"Point","coordinates":[-102.30030878307767,22.105671087041774]},"properties":{"OBJECTID":91,"CVEGEO":null,"CVESERV":null,"CONDICION":null,"GEOGRAFICO":"Instalación Deportiva o Recreativa","NOMGEO":null,"TIPO":null,"OID_1":null}},{"type":"Feature","id":92,"geometry":{"type":"Point","coordinates":[-102.30089310831747,22.107526468714497]},"properties":{"OBJECTID":92,"CVEGEO":null,"CVESERV":null,"CONDICION":null,"GEOGRAFICO":"Instalación Deportiva o Recreativa","NOMGEO":null,"TIPO":null,"OID_1":null}},{"type":"Feature","id":93,"geometry":{"type":"Point","coordinates":[-102.30365208538907,22.109526426200347]},"properties":{"OBJECTID":93,"CVEGEO":null,"CVESERV":null,"CONDICION":null,"GEOGRAFICO":"Instalación Deportiva o Recreativa","NOMGEO":null,"TIPO":null,"OID_1":null}},{"type":"Feature","id":94,"geometry":{"type":"Point","coordinates":[-102.2997485545428,22.105424104128723]},"properties":{"OBJECTID":94,"CVEGEO":null,"CVESERV":null,"CONDICION":null,"GEOGRAFICO":"Instalación Gubernamental","NOMGEO":null,"TIPO":null,"OID_1":null}},{"type":"Feature","id":95,"geometry":{"type":"Point","coordinates":[-102.29634501247041,22.107707188049957]},"properties":{"OBJECTID":95,"CVEGEO":null,"CVESERV":null,"CONDICION":null,"GEOGRAFICO":"Instalación Diversa","NOMGEO":null,"TIPO":null,"OID_1":null}},{"type":"Feature","id":96,"geometry":{"type":"Point","coordinates":[-102.29828473008264,22.110550500037188]},"properties":{"OBJECTID":96,"CVEGEO":null,"CVESERV":null,"CONDICION":null,"GEOGRAFICO":"Escuela","NOMGEO":null,"TIPO":null,"OID_1":null}},{"type":"Feature","id":97,"geometry":{"type":"Point","coordinates":[-102.29498057830843,22.136528068900532]},"properties":{"OBJECTID":97,"CVEGEO":null,"CVESERV":null,"CONDICION":null,"GEOGRAFICO":"Escuela","NOMGEO":null,"TIPO":null,"OID_1":null}},{"type":"Feature","id":98,"geometry":{"type":"Point","coordinates":[-102.2953612366025,22.134548646498352]},"properties":{"OBJECTID":98,"CVEGEO":null,"CVESERV":null,"CONDICION":null,"GEOGRAFICO":"Escuela","NOMGEO":null,"TIPO":null,"OID_1":null}},{"type":"Feature","id":99,"geometry":{"type":"Point","coordinates":[-102.29502816004279,22.137013408244965]},"properties":{"OBJECTID":99,"CVEGEO":null,"CVESERV":null,"CONDICION":null,"GEOGRAFICO":"Instalación Deportiva o Recreativa","NOMGEO":null,"TIPO":null,"OID_1":null}},{"type":"Feature","id":100,"geometry":{"type":"Point","coordinates":[-102.29588464133553,22.134700909746236]},"properties":{"OBJECTID":100,"CVEGEO":null,"CVESERV":null,"CONDICION":null,"GEOGRAFICO":"Instalación Deportiva o Recreativa","NOMGEO":null,"TIPO":null,"OID_1":null}},{"type":"Feature","id":101,"geometry":{"type":"Point","coordinates":[-102.29516139081879,22.133758781328662]},"properties":{"OBJECTID":101,"CVEGEO":null,"CVESERV":null,"CONDICION":null,"GEOGRAFICO":"Instalación Deportiva o Recreativa","NOMGEO":null,"TIPO":null,"OID_1":null}}]}